%time,field.header.seq,field.header.stamp,field.header.frame_id,field.pose.position.x,field.pose.position.y,field.pose.position.z,field.pose.orientation.x,field.pose.orientation.y,field.pose.orientation.z,field.pose.orientation.w
1385302994352117403,0,1385302994352117403,1,0.0,0.0,0.0,0.0,0.0,0.707106781187,0.707106781187
1385302997883499460,1,1385302997883499460,1,0.00893579365499,0.0483716003352,0.0,0.0,0.0,0.59723092599,0.802069336804
1385302998028920931,2,1385302998028920931,1,0.0146738432513,0.0649872656989,0.0,0.0,0.0,0.576302771607,0.817236266595
1385302998306082021,3,1385302998306082021,1,0.0349057164289,0.111264679332,0.0,0.0,0.0,0.540201499018,0.841535703615
1385302998968721150,4,1385302998968721150,1,0.092159390398,0.226899136561,0.0,0.0,0.0,0.509235197315,0.86062739546
1385302999269795894,5,1385302999269795894,1,0.124649973824,0.280573565737,0.0,0.0,0.0,0.480468767953,0.877011837447
1385302999644142635,6,1385302999644142635,1,0.168674041948,0.342076258571,0.0,0.0,0.0,0.441646785364,0.897189008503
1385303000229062357,7,1385303000229062357,1,0.248214503151,0.434768162933,0.0,0.0,0.0,0.405742942193,0.913987234517
1385303001046716361,8,1385303001046716361,1,0.304234599204,0.492626621241,0.0,0.0,0.0,0.372203433192,0.928151175359
1385303001471780249,9,1385303001471780249,1,0.381407073338,0.558473524811,0.0,0.0,0.0,0.333740200147,0.94266509366
1385303001896483130,10,1385303001896483130,1,0.304234599204,0.492626621241,0.0,0.0,0.0,0.372203433192,0.928151175359
1385303002486412708,11,1385303002486412708,1,0.381407073338,0.558473524811,0.0,0.0,0.0,0.333740200147,0.94266509366
1385303002576938506,12,1385303002576938506,1,0.404892676408,0.574963635981,0.0,0.0,0.0,0.291478598237,0.956577350124
1385303003133051296,13,1385303003133051296,1,0.381407073338,0.558473524811,0.0,0.0,0.0,0.333740200147,0.94266509366
1385303003209522668,14,1385303003209522668,1,0.398399354934,0.572495150756,0.0,0.0,0.0,0.33815191141,0.941091539017
1385303003522902561,15,1385303003522902561,1,0.381407073338,0.558473524811,0.0,0.0,0.0,0.333740200147,0.94266509366
1385303003644830053,16,1385303003644830053,1,0.404892676408,0.574963635981,0.0,0.0,0.0,0.291478598237,0.956577350124
1385303004118210584,17,1385303004118210584,1,0.528755027467,0.639329474465,0.0,0.0,0.0,0.211405775483,0.977398382489
1385303004591404151,18,1385303004591404151,1,0.650309867976,0.702053364008,0.0,0.0,0.0,0.26004720217,0.965595905461
1385303005669519576,19,1385303005669519576,1,0.934167716933,0.866101163741,0.0,0.0,0.0,0.239735107939,0.970838337738
1385303006346451784,20,1385303006346451784,1,0.650309867976,0.702053364008,0.0,0.0,0.0,0.26004720217,0.965595905461
1385303008149678615,21,1385303008149678615,1,0.934167716933,0.866101163741,0.0,0.0,0.0,0.239735107939,0.970838337738
1385303008397458352,22,1385303008397458352,1,0.991599734525,0.897431380314,0.0,0.0,0.0,0.251132726754,0.967952660802
1385303009483149391,23,1385303009483149391,1,1.27002780014,1.03625612132,0.0,0.0,0.0,0.20635549272,0.978477087429
1385303010615174100,24,1385303010615174100,1,1.56335351635,1.17014253894,0.0,0.0,0.0,0.213607952495,0.976919465786
1385303011748121438,25,1385303011748121438,1,1.81581880222,1.27402277156,0.0,0.0,0.0,0.15664454236,0.987655044714
1385303012141991580,26,1385303012141991580,1,1.88698376414,1.29198009311,0.0,0.0,0.0,0.102296646569,0.994753937464
1385303012273191856,27,1385303012273191856,1,1.94783170474,1.3000540578,0.0,0.0,0.0,0.0452879348309,0.998973975116
1385303012351069025,28,1385303012351069025,1,1.9720647889,1.30102825919,0.0,0.0,0.0,0.0200884785291,0.999798206155
1385303012505642198,29,1385303012505642198,1,1.99654028901,1.30108812933,0.0,0.0,0.0,-0.0051187998302,0.999986898858
1385303012672167771,30,1385303012672167771,1,2.05061231168,1.29642382533,0.0,0.0,0.0,-0.059871941306,0.998206066223
1385303012883719793,31,1385303012883719793,1,2.11414953948,1.2841294894,0.0,0.0,0.0,-0.11234207883,0.993669591627
1385303013113002245,32,1385303013113002245,1,2.16599133021,1.26880316492,0.0,0.0,0.0,-0.15355653268,0.988139864225
1385303013317248766,33,1385303013317248766,1,2.22415231315,1.24711017172,0.0,0.0,0.0,-0.187409293471,0.982281913058
1385303013710051157,34,1385303013710051157,1,2.29511418847,1.21612784355,0.0,0.0,0.0,-0.215400061771,0.976525889769
1385303014191220076,35,1385303014191220076,1,2.45583074724,1.12642613022,0.0,0.0,0.0,-0.291450525456,0.956585903728
1385303014673172013,36,1385303014673172013,1,2.5610028077,1.03789406165,0.0,0.0,0.0,-0.384089427417,0.923295896095
1385303015337244028,37,1385303015337244028,1,2.67267934711,0.884025436504,0.0,0.0,0.0,-0.503747584397,0.863850896402
1385303015385541101,38,1385303015385541101,1,2.67855011641,0.8732865366,0.0,0.0,0.0,-0.510057665364,0.86014020834
1385303015860553947,39,1385303015860553947,1,2.72445211768,0.768850152718,0.0,0.0,0.0,-0.566923198073,0.823770652237
1385303016211555642,40,1385303016211555642,1,2.7586989186,0.652357705411,0.0,0.0,0.0,-0.618878986923,0.785486345868
1385303016665584791,41,1385303016665584791,1,2.77598760382,0.557389457089,0.0,0.0,0.0,-0.656890907093,0.753985633934
1385303017014990604,42,1385303017014990604,1,2.78228598708,0.485579462255,0.0,0.0,0.0,-0.683935294582,0.729542673752
1385303017230700912,43,1385303017230700912,1,2.7833599964,0.438868543793,0.0,0.0,0.0,-0.70764365087,0.706569503575
1385303018530183915,44,1385303018530183915,1,2.77189010073,0.0759352826496,0.0,0.0,0.0,-0.747752772414,0.663977252131
1385303021820602965,45,1385303021820602965,1,2.67110255236,-0.479175704655,0.0,0.0,0.0,-0.781338149208,0.62410792063
1385303022673116825,46,1385303022673116825,1,2.62319259363,-0.669026806291,0.0,0.0,0.0,-0.79722300289,0.603684920851
1385303024448157616,47,1385303024448157616,1,2.52749798053,-0.924819718247,0.0,0.0,0.0,-0.843812456796,0.536638181418
1385303025033849351,48,1385303025033849351,1,2.46184886592,-1.05492309019,0.0,0.0,0.0,-0.86144647168,0.507848379372
1385303025195966617,49,1385303025195966617,1,2.52749798053,-0.924819718247,0.0,0.0,0.0,-0.843812456796,0.536638181418
1385303025788390874,50,1385303025788390874,1,2.4663941275,-1.0455043864,0.0,0.0,0.0,-0.858582440137,0.512675524566
1385303026421363663,51,1385303026421363663,1,2.37117733995,-1.20028448992,0.0,0.0,0.0,-0.885083485504,0.465432297641
1385303026735709893,52,1385303026735709893,1,2.30712791893,-1.28001103019,0.0,0.0,0.0,-0.910332138826,0.413878480983
1385303026941984649,53,1385303026941984649,1,2.27444670579,-1.31433471468,0.0,0.0,0.0,-0.921718331552,0.387859919664
1385303027126117547,54,1385303027126117547,1,2.24337828288,-1.34397783043,0.0,0.0,0.0,-0.931203675817,0.364499264945
1385303027281993995,55,1385303027281993995,1,2.19850668318,-1.38082563249,0.0,0.0,0.0,-0.946045773159,0.32403301543
1385303027536822217,56,1385303027536822217,1,2.15524478584,-1.41135754679,0.0,0.0,0.0,-0.956560083165,0.291535259096
1385303027650228295,57,1385303027650228295,1,2.10471273689,-1.4408539862,0.0,0.0,0.0,-0.96844442321,0.249229611309
1385303027865702704,58,1385303027865702704,1,2.04992934826,-1.46651782962,0.0,0.0,0.0,-0.979546152499,0.201219619133
1385303028124181857,59,1385303028124181857,1,2.02400410489,-1.47659052187,0.0,0.0,0.0,-0.983728275853,0.179662681955
1385303028315231227,60,1385303028315231227,1,1.93223276303,-1.5017476749,0.0,0.0,0.0,-0.994455292524,0.105160216671
1385303028474045268,61,1385303028474045268,1,1.89583977649,-1.50804628482,0.0,0.0,0.0,-0.996981956913,0.0776336112082
1385303028761825732,62,1385303028761825732,1,1.81822094719,-1.5140210242,0.0,0.0,0.0,-0.999835694054,0.0181269108343
1385303029245895065,63,1385303029245895065,1,1.70610213572,-1.50835677669,0.0,0.0,0.0,0.99838057171,0.0568879076025
1385303029362913222,64,1385303029362913222,1,1.67072462399,-1.50273486655,0.0,0.0,0.0,0.995928983192,0.0901413359003
1385303030475393108,65,1385303030475393108,1,1.62306819276,-1.48994233618,0.0,0.0,0.0,0.986842227544,0.161686171133
1385303030789268974,66,1385303030789268974,1,1.54739129611,-1.45703897836,0.0,0.0,0.0,0.975256807426,0.221075008921
1385303031210513857,67,1385303031210513857,1,1.42853292695,-1.39021758434,0.0,0.0,0.0,0.962651752329,0.270742689169
1385303031829090718,68,1385303031829090718,1,1.28641664305,-1.29459893323,0.0,0.0,0.0,0.950772791133,0.309888850463
1385303032222627433,69,1385303032222627433,1,1.22529417556,-1.24672819868,0.0,0.0,0.0,0.938136971319,0.346264383158
1385303032614353670,70,1385303032614353670,1,1.20666039089,-1.23017739771,0.0,0.0,0.0,0.93298563955,0.359913595733
1385303033006230221,71,1385303033006230221,1,1.22529417556,-1.24672819868,0.0,0.0,0.0,0.938136971319,0.346264383158
1385303033334079038,72,1385303033334079038,1,1.1684298685,-1.20027279873,0.0,0.0,0.0,0.944663742646,0.328040261753
1385303033714290111,73,1385303033714290111,1,1.06533240781,-1.12841699651,0.0,0.0,0.0,0.959943618212,0.280193236632
1385303034902927333,74,1385303034902927333,1,0.792482369707,-0.968611545016,0.0,0.0,0.0,0.964073173426,0.265636812735
1385303036555943180,75,1385303036555943180,1,0.45059015303,-0.725474098247,0.0,0.0,0.0,0.936970550404,0.349408339447
1385303036977213752,76,1385303036977213752,1,0.348767815251,-0.631089308526,0.0,0.0,0.0,0.926348813966,0.376666795542
1385303037599930046,77,1385303037599930046,1,0.260568649195,-0.537204317866,0.0,0.0,0.0,0.909408778191,0.415903443301
1385303038282603579,78,1385303038282603579,1,0.247129484581,-0.520886770012,0.0,0.0,0.0,0.90243296048,0.430830305154
1385303038524262228,79,1385303038524262228,1,0.260568649195,-0.537204317866,0.0,0.0,0.0,0.909408778191,0.415903443301
1385303038807809771,80,1385303038807809771,1,0.222734158509,-0.492264479784,0.0,0.0,0.0,0.904599247556,0.426263065866
1385303039993146783,81,1385303039993146783,1,0.0604745663733,-0.284456983346,0.0,0.0,0.0,0.887248876933,0.461291047367
1385303040471544881,82,1385303040471544881,1,-0.00947215276326,-0.16083032187,0.0,0.0,0.0,0.845830515464,0.533451721442
1385303040686959051,83,1385303040686959051,1,-0.0225597370698,-0.129643279602,0.0,0.0,0.0,0.829850763131,0.55798540387
1385303040896985638,84,1385303040896985638,1,-0.0388877640453,-0.074892226715,0.0,0.0,0.0,0.782787696995,0.622288856909
1385303041099457045,85,1385303041099457045,1,-0.0424627742221,-0.0489026428757,0.0,0.0,0.0,0.738910963953,0.673803077575
1385303041277492721,86,1385303041277492721,1,-0.0425451189531,-0.0335612086505,0.0,0.0,0.0,0.701823704611,0.712350677437
1385303041448134854,87,1385303041448134854,1,-0.039459437446,-0.00975549504663,0.0,0.0,0.0,0.641385450396,0.767218811044
1385303041624241122,88,1385303041624241122,1,-0.0307856010599,0.0192087280796,0.0,0.0,0.0,0.585868133069,0.810406398454
1385303041812393997,89,1385303041812393997,1,-0.00514509297793,0.0727404998601,0.0,0.0,0.0,0.528904089722,0.848681603357
1385303042341951710,90,1385303042341951710,1,0.0605202758458,0.189220815251,0.0,0.0,0.0,0.492847449581,0.87011573451
1385303042553913373,91,1385303042553913373,1,0.109068294705,0.261925707668,0.0,0.0,0.0,0.454216314998,0.890891429518
1385303042757391616,92,1385303042757391616,1,0.14036495522,0.299256977095,0.0,0.0,0.0,0.408641411678,0.912695018427
1385303042903793961,93,1385303042903793961,1,0.164748897708,0.323329604313,0.0,0.0,0.0,0.372790138025,0.927915682048
1385303043057118253,94,1385303043057118253,1,0.191985122239,0.346587562188,0.0,0.0,0.0,0.338759645918,0.940872946947
1385303043179901700,95,1385303043179901700,1,0.213888563399,0.363363779078,0.0,0.0,0.0,0.316207549735,0.948690036572
1385303043425547097,96,1385303043425547097,1,0.259814550153,0.395530433618,0.0,0.0,0.0,0.292941930258,0.95613023459
1385303044132483733,97,1385303044132483733,1,0.443540662262,0.502488756711,0.0,0.0,0.0,0.231211211921,0.972903579746
1385303044569946282,98,1385303044569946282,1,0.568491864635,0.556500264889,0.0,0.0,0.0,0.181389860624,0.983411266187
1385303045722582668,99,1385303045722582668,1,0.723758313463,0.716558868518,0.0,0.0,0.0,0.227892626726,0.973686269126
1385303046001912799,100,1385303046001912799,1,0.408311485809,0.576936308546,0.0,0.0,0.0,0.241116399979,0.970496203837
1385303046156682242,101,1385303046156682242,1,0.7178148259,0.724704419831,0.0,0.0,0.0,0.228656122859,0.973507255997
1385303046221181377,102,1385303046221181377,1,0.730806172373,0.736146705691,0.0,0.0,0.0,0.229621501664,0.973280003891
1385303046774314991,103,1385303046774314991,1,0.940950402688,0.842469093083,0.0,0.0,0.0,0.213836201476,0.976869530151
1385303046922840230,104,1385303046922840230,1,0.782247267348,0.768729415764,0.0,0.0,0.0,0.226942335756,0.97390819703
1385303047197235544,105,1385303047197235544,1,0.849942537325,0.803107352853,0.0,0.0,0.0,0.226288552232,0.974060311854
1385303048655334580,106,1385303048655334580,1,1.14421928,0.948338353736,0.0,0.0,0.0,0.221826693013,0.975086108129
1385303049772724561,107,1385303049772724561,1,1.37564693416,1.04016435909,0.0,0.0,0.0,0.203687522407,0.979035950931
1385303050110613654,108,1385303050110613654,1,1.41107926742,1.05043251652,0.0,0.0,0.0,0.176889501928,0.984230716909
1385303050148879182,109,1385303050148879182,1,1.38033648686,1.03881848665,0.0,0.0,0.0,0.203272251169,0.979122255852
1385303050231045812,110,1385303050231045812,1,1.41419991393,1.04898440747,0.0,0.0,0.0,0.175917568452,0.984404900999
1385303050860505937,111,1385303050860505937,1,1.44795010366,1.06125713263,0.0,0.0,0.0,0.187584660844,0.982248438541
1385303051047125154,112,1385303051047125154,1,1.4065059582,1.04625531114,0.0,0.0,0.0,0.201190785441,0.979552075111
1385303051272779773,113,1385303051272779773,1,1.66972752439,1.15865586214,0.0,0.0,0.0,0.198620378019,0.980076499787
1385303052153282287,114,1385303052153282287,1,1.89519409581,1.26562972338,0.0,0.0,0.0,0.235675338421,0.971831844951
1385303052873955567,115,1385303052873955567,1,2.07263291898,1.3487140053,0.0,0.0,0.0,0.173586825199,0.984818569137
1385303053032088128,116,1385303053032088128,1,2.04861219357,1.30903357657,0.0,0.0,0.0,0.0957985110456,0.995400746072
1385303053266337936,117,1385303053266337936,1,2.06181381603,1.29315433221,0.0,0.0,0.0,0.0122159513923,0.999925382482
1385303053399039190,118,1385303053399039190,1,2.09709639615,1.29027313628,0.0,0.0,0.0,-0.0493971034844,0.998779217929
1385303053455142774,119,1385303053455142774,1,2.11014921543,1.28763210628,0.0,0.0,0.0,-0.0767407036831,0.997051084147
1385303053561012059,120,1385303053561012059,1,2.15215855145,1.28919942977,0.0,0.0,0.0,-0.083858650199,0.996477659954
1385303053704689341,121,1385303053704689341,1,2.21881109325,1.27753313906,0.0,0.0,0.0,-0.130200580901,0.991487674524
1385303053887776993,122,1385303053887776993,1,2.26764220219,1.26215261322,0.0,0.0,0.0,-0.170460348802,0.985364536345
1385303054233073973,123,1385303054233073973,1,2.35621792387,1.2280780755,0.0,0.0,0.0,-0.197473920536,0.980308140693
1385303054581924369,124,1385303054581924369,1,2.44349151709,1.1876841518,0.0,0.0,0.0,-0.238277868524,0.971197022942
1385303054814638640,125,1385303054814638640,1,2.44027347704,1.1911645136,0.0,0.0,0.0,-0.256046532504,0.966664457396
1385303054897357998,126,1385303054897357998,1,2.57200817306,1.10561631002,0.0,0.0,0.0,-0.317223277996,0.948350880158
1385303055154965780,127,1385303055154965780,1,2.67151148395,1.01354810053,0.0,0.0,0.0,-0.40752193181,0.913195419992
1385303055392777570,128,1385303055392777570,1,2.70612006241,0.9709560884,0.0,0.0,0.0,-0.460094940285,0.887869723509
1385303055650652331,129,1385303055650652331,1,2.74669305229,0.902978849256,0.0,0.0,0.0,-0.52841491725,0.848986263274
1385303056156368691,130,1385303056156368691,1,2.78777540922,0.79276867509,0.0,0.0,0.0,-0.605491814943,0.79585153266
1385303056494588960,131,1385303056494588960,1,2.83402384301,0.657927346934,0.0,0.0,0.0,-0.640057642125,0.768326893163
1385303056680828567,132,1385303056680828567,1,2.85097634459,0.582045132183,0.0,0.0,0.0,-0.660139900471,0.75114267074
1385303057006818946,133,1385303057006818946,1,2.85644462602,0.49246800581,0.0,0.0,0.0,-0.696342051048,0.717710072343
1385303057364927612,134,1385303057364927612,1,2.85505824532,0.438435003667,0.0,0.0,0.0,-0.720170404598,0.693797224225
1385303057637653102,135,1385303057637653102,1,2.85355590254,0.415778333295,0.0,0.0,0.0,-0.741737089077,0.670690756376
1385303058130458161,136,1385303058130458161,1,2.84926862035,0.384965708487,0.0,0.0,0.0,-0.761817560815,0.647791636279
1385303058205910356,137,1385303058205910356,1,2.84435152801,0.356853208801,0.0,0.0,0.0,-0.767940184283,0.640521563543
1385303058809283553,138,1385303058809283553,1,2.80174625918,0.177369177192,0.0,0.0,0.0,-0.804898744249,0.593412176742
1385303059238830861,139,1385303059238830861,1,2.75801581202,0.0682572167399,0.0,0.0,0.0,-0.846149182483,0.532946114521
1385303059354800623,140,1385303059354800623,1,2.75275598907,0.0579593224639,0.0,0.0,0.0,-0.850872905854,0.525371580963
1385303059546200786,141,1385303059546200786,1,2.72575579338,0.0100645567171,0.0,0.0,0.0,-0.868357127546,0.495939410654
1385303059717394168,142,1385303059717394168,1,2.68415263886,-0.0515667468978,0.0,0.0,0.0,-0.891123543633,0.453760762939
1385303059917942280,143,1385303059917942280,1,2.6568284202,-0.0859563880233,0.0,0.0,0.0,-0.902626206919,0.430425290363
1385303060009451537,144,1385303060009451537,1,2.6486725533,-0.0955247321983,0.0,0.0,0.0,-0.905748964856,0.423814597038
1385303060111738878,145,1385303060111738878,1,2.61970798332,-0.126800513109,0.0,0.0,0.0,-0.918642939342,0.395088787487
1385303060318024868,146,1385303060318024868,1,2.58538626037,-0.159368969817,0.0,0.0,0.0,-0.932482037093,0.361216348605
1385303060526285958,147,1385303060526285958,1,2.54590288055,-0.191122117872,0.0,0.0,0.0,-0.947804988966,0.318850596505
1385303060789360161,148,1385303060789360161,1,2.48405885316,-0.23015391457,0.0,0.0,0.0,-0.9670101012,0.254738030488
1385303061130718732,149,1385303061130718732,1,2.40932039922,-0.265100046855,0.0,0.0,0.0,-0.98029555692,0.197536379139
1385303061436495274,150,1385303061436495274,1,2.32482900738,-0.294397163964,0.0,0.0,0.0,-0.9888638726,0.148822852632
1385303061686144458,151,1385303061686144458,1,2.24660700682,-0.312560456404,0.0,0.0,0.0,-0.995019334238,0.0996821172154
1385303061852889950,152,1385303061852889950,1,2.21427550845,-0.317671851649,0.0,0.0,0.0,-0.99696815593,0.0778106423402
1385303062089611589,153,1385303062089611589,1,2.16425390662,-0.323074816446,0.0,0.0,0.0,-0.999016637729,0.0443368643509
1385303062242499501,154,1385303062242499501,1,2.10908363153,-0.325220987287,0.0,0.0,0.0,-0.999964283609,0.00845171613123
1385303062435878151,155,1385303062435878151,1,2.05678839778,-0.32353451259,0.0,0.0,0.0,0.999647603237,0.0265456087105
1385303062630827060,156,1385303062630827060,1,2.00496585362,-0.318158093719,0.0,0.0,0.0,0.997994901903,0.0632943581708
1385303063013021103,157,1385303063013021103,1,1.91616474356,-0.300371315719,0.0,0.0,0.0,0.992669900677,0.120857222742
1385303063107727597,158,1385303063107727597,1,1.87922398596,-0.289382434964,0.0,0.0,0.0,0.988584038928,0.150670494715
1385303063439580554,159,1385303063439580554,1,1.79912895542,-0.257158860117,0.0,0.0,0.0,0.977009925775,0.21319382012
1385303063729638365,160,1385303063729638365,1,1.72023479248,-0.213612225797,0.0,0.0,0.0,0.961304526836,0.275487942901
1385303063946039098,161,1385303063946039098,1,1.68820309601,-0.191382849562,0.0,0.0,0.0,0.952267086119,0.305266108001
1385303064147799604,162,1385303064147799604,1,1.65031604807,-0.161029510694,0.0,0.0,0.0,0.937009803538,0.349303060499
1385303064340330947,163,1385303064340330947,1,1.64042884998,-0.151981906311,0.0,0.0,0.0,0.929875751654,0.367873737152
1385303064427117380,164,1385303064427117380,1,1.64041001171,-0.151932121186,0.0,0.0,0.0,0.929876056067,0.367872967684
1385303064576066545,165,1385303064576066545,1,1.64039205646,-0.1518856734,0.0,0.0,0.0,0.929876332573,0.367872268757
1385303065067892727,166,1385303065067892727,1,1.60611468198,-0.112403396484,0.0,0.0,0.0,0.899563805023,0.436789377954
1385303065342733408,167,1385303065342733408,1,1.57250512162,-0.0641898124264,0.0,0.0,0.0,0.879969686363,0.475029842306
1385303065564746258,168,1385303065564746258,1,1.5335251737,0.00351218719726,0.0,0.0,0.0,0.856906053371,0.515472613915
1385303065746614079,169,1385303065746614079,1,1.51790349134,0.0360367598646,0.0,0.0,0.0,0.839684086269,0.543075165392
1385303065981410365,170,1385303065981410365,1,1.5121380482,0.0498253340011,0.0,0.0,0.0,0.827248010926,0.561836923332
1385303066351892096,171,1385303066351892096,1,1.50176065565,0.0792338418348,0.0,0.0,0.0,0.812460969278,0.583015585897
1385303066586420919,172,1385303066586420919,1,1.48456493537,0.133577132319,0.0,0.0,0.0,0.804821484523,0.593516956835
1385303066894696670,173,1385303066894696670,1,1.50173674707,0.0793015646369,0.0,0.0,0.0,0.812453458819,0.583026051951
1385303066974126384,174,1385303066974126384,1,1.48453954435,0.133653452724,0.0,0.0,0.0,0.804812980528,0.593528488258
1385303067060869678,175,1385303067060869678,1,1.47778882414,0.156985013416,0.0,0.0,0.0,0.798187513885,0.602409074199
1385303067371616224,176,1385303067371616224,1,1.46253625716,0.235105897647,0.0,0.0,0.0,0.749501054555,0.662003148951
1385303067835875255,177,1385303067835875255,1,1.46218253571,0.336450032738,0.0,0.0,0.0,0.682664440165,0.730732004318
1385303068147188356,178,1385303068147188356,1,1.47101237923,0.406437538173,0.0,0.0,0.0,0.649253340041,0.760572219086
1385303068328812882,179,1385303068328812882,1,1.48231593682,0.464327891181,0.0,0.0,0.0,0.628189865061,0.778060083435
1385303068467065466,180,1385303068467065466,1,1.49992159678,0.52686684028,0.0,0.0,0.0,0.587844752587,0.808973761537
1385303068733827805,181,1385303068733827805,1,1.52124060945,0.579684524899,0.0,0.0,0.0,0.545879113832,0.837863946642
1385303068907273110,182,1385303068907273110,1,1.54540988372,0.627058426475,0.0,0.0,0.0,0.511202042022,0.859460570493
1385303069138449524,183,1385303069138449524,1,1.57089785874,0.669380487733,0.0,0.0,0.0,0.482081899587,0.876126156493
1385303069430066212,184,1385303069430066212,1,1.61186770783,0.726232433131,0.0,0.0,0.0,0.437133068106,0.899396842761
1385303069954334902,185,1385303069954334902,1,1.70404457395,0.821366513832,0.0,0.0,0.0,0.348829867521,0.937186066651
1385303070089950623,186,1385303070089950623,1,1.72187251284,0.836132889133,0.0,0.0,0.0,0.333463531676,0.942762999402
1385303070396685719,187,1385303070396685719,1,1.74790859525,0.85555952273,0.0,0.0,0.0,0.299050429911,0.954237308205
1385303070645529951,188,1385303070645529951,1,1.801116488,0.887076979674,0.0,0.0,0.0,0.249221492001,0.968446512681
1385303071017659281,189,1385303071017659281,1,1.89068453546,0.930300104337,0.0,0.0,0.0,0.209304514193,0.97785051022
1385303071603901888,190,1385303071603901888,1,2.05523133582,0.991320158858,0.0,0.0,0.0,0.160454999438,0.987043156683
1385303071774235984,191,1385303071774235984,1,2.12128291742,1.01271460926,0.0,0.0,0.0,0.154489914887,0.987994365469
1385303072232966807,192,1385303072232966807,1,2.24644089678,1.04911296199,0.0,0.0,0.0,0.116928877661,0.993140290981
1385303072410786882,193,1385303072410786882,1,2.28966645599,1.05630580454,0.0,0.0,0.0,0.0693184940801,0.997594580167
1385303072543496292,194,1385303072543496292,1,2.29275273968,1.05672527121,0.0,0.0,0.0,0.0660730682264,0.99781478725
1385303072667905182,195,1385303072667905182,1,2.34515927356,1.05925156258,0.0,0.0,0.0,-0.00310779589824,0.999995170791
1385303072826111619,196,1385303072826111619,1,2.37422640704,1.05719386383,0.0,0.0,0.0,-0.0464631399975,0.998920005116
1385303073041144910,197,1385303073041144910,1,2.42083060132,1.04872138163,0.0,0.0,0.0,-0.108733394021,0.994070947682
1385303073183714333,198,1385303073183714333,1,2.45008801209,1.0410133986,0.0,0.0,0.0,-0.134969962967,0.990849690466
1385303073501834237,199,1385303073501834237,1,2.51754872217,1.01761103339,0.0,0.0,0.0,-0.18234510311,0.983234592237
1385303073627293254,200,1385303073627293254,1,2.56679833124,0.995869465595,0.0,0.0,0.0,-0.219036603159,0.975716642513
1385303074022797443,201,1385303074022797443,1,2.64037669903,0.951757865219,0.0,0.0,0.0,-0.296558220954,0.955014775584
1385303074341782326,202,1385303074341782326,1,2.71475956076,0.885998862854,0.0,0.0,0.0,-0.393805293463,0.919193880985
1385303074504537749,203,1385303074504537749,1,2.73329160435,0.864968689435,0.0,0.0,0.0,-0.417367464021,0.908737805957
1385303074884610547,204,1385303074884610547,1,2.79617291376,0.774690591418,0.0,0.0,0.0,-0.490700344016,0.871328395258
1385303075398880169,205,1385303075398880169,1,2.8545204243,0.662879823711,0.0,0.0,0.0,-0.533720571662,0.845660896214
1385303075929054710,206,1385303075929054710,1,2.90904758501,0.518605778341,0.0,0.0,0.0,-0.600025347551,0.799980988709
1385303076330290152,207,1385303076330290152,1,2.93153818408,0.416994138902,0.0,0.0,0.0,-0.646720330219,0.762727221542
1385303077160260323,208,1385303077160260323,1,2.94699592047,0.160160727462,0.0,0.0,0.0,-0.695858199184,0.718179202308
1385303079393540637,209,1385303079393540637,1,2.9554319004,-0.410396614989,0.0,0.0,0.0,-0.723835838173,0.689972230873
1385303080561556032,210,1385303080561556032,1,2.95448348303,-0.425941068064,0.0,0.0,0.0,-0.729318596594,0.684174235602
1385303080951822165,211,1385303080951822165,1,2.94466130214,-0.535871326925,0.0,0.0,0.0,-0.739662025135,0.672978520143
1385303081532092349,212,1385303081532092349,1,2.94272516356,-0.462794558882,0.0,0.0,0.0,-0.729927196486,0.683524899203
1385303081565761239,213,1385303081565761239,1,2.95221675113,-0.311408391113,0.0,0.0,0.0,-0.713173310714,0.700987752307
1385303083797646944,214,1385303083797646944,1,2.96289320359,-0.806142666564,0.0,0.0,0.0,-0.705853625033,0.708357720384
1385303084476742502,215,1385303084476742502,1,2.94496739833,-0.998536831216,0.0,0.0,0.0,-0.765441293338,0.643505731484
1385303084900204390,216,1385303084900204390,1,2.91676807123,-1.10694660908,0.0,0.0,0.0,-0.809590471865,0.586995117411
1385303085047273236,217,1385303085047273236,1,2.9032847824,-1.14356040148,0.0,0.0,0.0,-0.823728953474,0.566983783903
1385303085451419495,218,1385303085451419495,1,2.85196151144,-1.25012197397,0.0,0.0,0.0,-0.860869310029,0.508826130472
1385303085515625848,219,1385303085515625848,1,2.84434594532,-1.26319242705,0.0,0.0,0.0,-0.865815558277,0.500363287069
1385303085762193263,220,1385303085762193263,1,2.82630079455,-1.29145982313,0.0,0.0,0.0,-0.881071771932,0.472982592391
1385303085908405422,221,1385303085908405422,1,2.81760871121,-1.30364672029,0.0,0.0,0.0,-0.894050246409,0.447966691725
1385303086223411447,222,1385303086223411447,1,2.78628762666,-1.33939048097,0.0,0.0,0.0,-0.918287403306,0.395914441426
1385303086429849164,223,1385303086429849164,1,2.74013917069,-1.38321951638,0.0,0.0,0.0,-0.933047401995,0.359753451173
1385303086722703334,224,1385303086722703334,1,2.67775706797,-1.43321969545,0.0,0.0,0.0,-0.946888869174,0.321560988669
1385303087131102689,225,1385303087131102689,1,2.60960830587,-1.47842415092,0.0,0.0,0.0,-0.962562762592,0.271058901479
1385303087528266133,226,1385303087528266133,1,2.47871227483,-1.53754356778,0.0,0.0,0.0,-0.987058919675,0.160358002887
1385303087821540831,227,1385303087821540831,1,2.40602170787,-1.55590000535,0.0,0.0,0.0,-0.99469278773,0.102889542895
1385303088275629827,228,1385303088275629827,1,2.31426709699,-1.56621992712,0.0,0.0,0.0,-0.999634691652,0.0270274535457
1385303088916982726,229,1385303088916982726,1,2.2006973441,-1.55849558848,0.0,0.0,0.0,0.997083721385,0.0763154804033
1385303089115370503,230,1385303089115370503,1,2.14040567834,-1.54616154868,0.0,0.0,0.0,0.993813964171,0.111057663482
1385303089492498227,231,1385303089492498227,1,2.03011163042,-1.51383831032,0.0,0.0,0.0,0.986647766513,0.162868612182
1385303089911580153,232,1385303089911580153,1,1.99522589499,-1.50055557646,0.0,0.0,0.0,0.981914314599,0.18932585345
1385303090643089578,233,1385303090643089578,1,1.94797911208,-1.47877479285,0.0,0.0,0.0,0.975309802637,0.220841094182
1385303090762574005,234,1385303090762574005,1,1.91037736579,-1.46000758957,0.0,0.0,0.0,0.9732930557,0.229566172871
1385303091378157893,235,1385303091378157893,1,1.75285929736,-1.37087888714,0.0,0.0,0.0,0.956931067444,0.290315228951
1385303091596838500,236,1385303091596838500,1,1.71255193691,-1.34010447898,0.0,0.0,0.0,0.942643466087,0.333801281969
1385303091763307945,237,1385303091763307945,1,1.70116108862,-1.33014884923,0.0,0.0,0.0,0.937290518528,0.348549112577
1385303091835988602,238,1385303091835988602,1,1.66864474149,-1.29598349455,0.0,0.0,0.0,0.914424316855,0.404756925505
1385303092004879023,239,1385303092004879023,1,1.65766426429,-1.282819848,0.0,0.0,0.0,0.904621611644,0.426215602421
1385303092249614136,240,1385303092249614136,1,1.6216668585,-1.2303742474,0.0,0.0,0.0,0.874060316569,0.485817417348
1385303092356584553,241,1385303092356584553,1,1.59871850902,-1.1876256329,0.0,0.0,0.0,0.851014662456,0.525141927754
1385303092745391059,242,1385303092745391059,1,1.56646253226,-1.10354340213,0.0,0.0,0.0,0.805219967336,0.592976225665
1385303093172611869,243,1385303093172611869,1,1.54835845469,-1.01444486689,0.0,0.0,0.0,0.744939046521,0.667132533285
1385303093332777637,244,1385303093332777637,1,1.54736064264,-1.00332371569,0.0,0.0,0.0,0.736745331538,0.67617033095
1385303093990613650,245,1385303093990613650,1,1.54642814375,-0.968151751513,0.0,0.0,0.0,0.706439308486,0.707773624421
1385303094143627746,246,1385303094143627746,1,1.54850277858,-0.923659836327,0.0,0.0,0.0,0.686697131837,0.726943635454
1385303094251340763,247,1385303094251340763,1,1.5494228642,-0.910300824805,0.0,0.0,0.0,0.683140390413,0.730287071627
1385303094683034715,248,1385303094683034715,1,1.56925037344,-0.746423909484,0.0,0.0,0.0,0.639822830728,0.768522442925
1385303094868266584,249,1385303094868266584,1,1.57605927223,-0.716899183971,0.0,0.0,0.0,0.6170447881,0.786928033227
1385303095091344134,250,1385303095091344134,1,1.5978489624,-0.653119980917,0.0,0.0,0.0,0.559338298392,0.82893948389
1385303095484089095,251,1385303095484089095,1,1.6335979162,-0.585234916785,0.0,0.0,0.0,0.489233272434,0.872152971183
1385303095634948382,252,1385303095634948382,1,1.64562578631,-0.567268911965,0.0,0.0,0.0,0.471001389384,0.882132468056
1385303095727531576,253,1385303095727531576,1,1.68056139507,-0.522838402332,0.0,0.0,0.0,0.412667711733,0.910881638685
1385303096041703324,254,1385303096041703324,1,1.69131698348,-0.51122017994,0.0,0.0,0.0,0.396540333478,0.91801730045
1385303096463055475,255,1385303096463055475,1,1.71972081788,-0.486270714742,0.0,0.0,0.0,0.324415014598,0.945914847279
1385303096547215590,256,1385303096547215590,1,1.74540677658,-0.468207984878,0.0,0.0,0.0,0.295375597354,0.955381210035
1385303097052990862,257,1385303097052990862,1,1.86574593671,-0.398078038405,0.0,0.0,0.0,0.242694778555,0.970102697895
1385303098336240647,258,1385303098336240647,1,2.19924850366,-0.247768678885,0.0,0.0,0.0,0.131923726498,0.991259870259
1385303098715084228,259,1385303098715084228,1,2.32961341102,-0.225577409566,0.0,0.0,0.0,0.0441142940122,0.999026490672
1385303099394960303,260,1385303099394960303,1,2.44953692395,-0.231708945024,0.0,0.0,0.0,-0.0786987595601,0.996898442793
1385303099571889474,261,1385303099571889474,1,2.54196965241,-0.257518072471,0.0,0.0,0.0,-0.176121686295,0.984368402386
1385303099942028751,262,1385303099942028751,1,2.61607536029,-0.293698701521,0.0,0.0,0.0,-0.255491114984,0.966811403617
1385303100107501261,263,1385303100107501261,1,2.65991439878,-0.322568843894,0.0,0.0,0.0,-0.304077769031,0.952647211921
1385303100643321443,264,1385303100643321443,1,2.7247956477,-0.380635080311,0.0,0.0,0.0,-0.402688847414,0.915336928223
1385303101200382002,265,1385303101200382002,1,2.79203768514,-0.468641879613,0.0,0.0,0.0,-0.456413388131,0.88976784564
1385303101926366940,266,1385303101926366940,1,2.89435640008,-0.639805557305,0.0,0.0,0.0,-0.544236588442,0.838931782567
1385303102393738883,267,1385303102393738883,1,2.9221860293,-0.731351046798,0.0,0.0,0.0,-0.632611665773,0.774469160346
1385303102722777376,268,1385303102722777376,1,2.93026060571,-0.818993816907,0.0,0.0,0.0,-0.693637639181,0.720324111433
1385303103238371166,269,1385303103238371166,1,2.91967086824,-0.966338418453,0.0,0.0,0.0,-0.760091360629,0.649816222864
1385303103450565820,270,1385303103450565820,1,2.91038027352,-1.01073561956,0.0,0.0,0.0,-0.783869967767,0.620925014501
1385303103634681893,271,1385303103634681893,1,2.89665772327,-1.05676322423,0.0,0.0,0.0,-0.810243694888,0.586093128175
1385303103831272819,272,1385303103831272819,1,2.88387306088,-1.08948510515,0.0,0.0,0.0,-0.830719232865,0.55669161674
1385303103964737121,273,1385303103964737121,1,2.86198923892,-1.13322516042,0.0,0.0,0.0,-0.858739117944,0.51241304366
1385303104141177948,274,1385303104141177948,1,2.8353423609,-1.17503878337,0.0,0.0,0.0,-0.883966348366,0.467550526635
1385303104256973348,275,1385303104256973348,1,2.82060802248,-1.19455731338,0.0,0.0,0.0,-0.895112390799,0.445840563249
1385303104409022292,276,1385303104409022292,1,2.81570153887,-1.2008652146,0.0,0.0,0.0,-0.898283024048,0.439417351396
1385303104680051680,277,1385303104680051680,1,2.7575099078,-1.2617848577,0.0,0.0,0.0,-0.929167991584,0.369657738206
1385303104897602203,278,1385303104897602203,1,2.72826958527,-1.28713096497,0.0,0.0,0.0,-0.939395344362,0.342835801794
1385303105685163751,279,1385303105685163751,1,2.51946169458,-1.39383163288,0.0,0.0,0.0,-0.990983737667,0.133982206579
1385303105788513065,280,1385303105788513065,1,2.50453348279,-1.39736430845,0.0,0.0,0.0,-0.993687280286,0.112185511534
1385303106269002187,281,1385303106269002187,1,2.45925590211,-1.40414963503,0.0,0.0,0.0,-0.999042249302,0.0437559608435
1385303106743578905,282,1385303106743578905,1,1.81149102838,-1.40109310278,0.0,0.0,0.0,0.987946502276,0.154795699686
1385303106948187407,283,1385303106948187407,1,1.74017139141,-1.39065643497,0.0,0.0,0.0,0.973645264874,0.22806774912
1385303107133464666,284,1385303107133464666,1,1.70530804208,-1.36596636154,0.0,0.0,0.0,0.973195974631,0.229977379242
1385303107207755353,285,1385303107207755353,1,1.64983881744,-1.34171985322,0.0,0.0,0.0,0.974479241537,0.224477633214
1385303108056280477,286,1385303108056280477,1,1.68268893884,-1.35415597221,0.0,0.0,0.0,0.976939125194,0.213518021876
1385303108404161496,287,1385303108404161496,1,1.58345051797,-1.29946570562,0.0,0.0,0.0,0.966409810546,0.257005988415
1385303108766322126,288,1385303108766322126,1,1.48011019281,-1.23137963769,0.0,0.0,0.0,0.955122897734,0.296209807777
1385303108815048703,289,1385303108815048703,1,1.47155061328,-1.22404639521,0.0,0.0,0.0,0.954044875819,0.299663769789
1385303110522799635,290,1385303110522799635,1,1.105783935,-0.967252593472,0.0,0.0,0.0,0.956214768873,0.292665877391
1385303111811763573,291,1385303111811763573,1,0.668888061768,-0.771959153211,0.0,0.0,0.0,0.954224736574,0.299090541659
1385303111952902662,292,1385303111952902662,1,0.953761607876,-0.960984598373,0.0,0.0,0.0,0.955801472905,0.294012830321
1385303112412239619,293,1385303112412239619,1,0.680840826399,-0.773847577645,0.0,0.0,0.0,0.954420188351,0.298466252813
1385303112533765847,294,1385303112533765847,1,0.603054072504,-0.731722238685,0.0,0.0,0.0,0.945872764966,0.324537690409
1385303112738460351,295,1385303112738460351,1,0.543554485272,-0.691745420837,0.0,0.0,0.0,0.937192479595,0.348812637658
1385303112904995852,296,1385303112904995852,1,0.499815597098,-0.661667282341,0.0,0.0,0.0,0.938676898031,0.344798029436
1385303113130638305,297,1385303113130638305,1,0.457885041518,-0.626133851876,0.0,0.0,0.0,0.92860407147,0.371072066381
1385303113315568603,298,1385303113315568603,1,0.382927737805,-0.552689880711,0.0,0.0,0.0,0.919867307779,0.392229698109
1385303113891140907,299,1385303113891140907,1,0.336841383743,-0.511916498687,0.0,0.0,0.0,0.912628657334,0.408789596018
1385303113968426890,300,1385303113968426890,1,0.342927672542,-0.525664262634,0.0,0.0,0.0,0.917911488406,0.396785205687
1385303114324737934,301,1385303114324737934,1,0.302903785599,-0.471902209422,0.0,0.0,0.0,0.880272675345,0.474468141228
1385303114453522645,302,1385303114453522645,1,0.281258948267,-0.435015614016,0.0,0.0,0.0,0.861202167413,0.508262556996
1385303114697121339,303,1385303114697121339,1,0.132386757141,-0.243741318837,0.0,0.0,0.0,0.824213017365,0.566279879571
1385303114908068121,304,1385303114908068121,1,0.0870990020774,-0.18536709861,0.0,0.0,0.0,0.778621545135,0.627493816266
1385303115474618846,305,1385303115474618846,1,0.0771697435283,-0.167913497532,0.0,0.0,0.0,0.744494133503,0.66762900265
1385303115684209434,306,1385303115684209434,1,0.0800704770264,-0.0815393493666,0.0,0.0,0.0,0.685531265529,0.728043188267
1385303115891225501,307,1385303115891225501,1,0.0908336991848,-0.0268167218757,0.0,0.0,0.0,0.641419155852,0.767190632442
1385303116034422340,308,1385303116034422340,1,0.097851265852,-0.00570204662621,0.0,0.0,0.0,0.623436385001,0.781874078006
1385303116201163867,309,1385303116201163867,1,0.117467596137,0.049854126787,0.0,0.0,0.0,0.576772882213,0.816904549102
1385303116243096735,310,1385303116243096735,1,0.0964712531266,-0.0114479616694,0.0,0.0,0.0,0.577854978923,0.816139463164
1385303116392837960,311,1385303116392837960,1,0.132286564406,0.0955102910392,0.0,0.0,0.0,0.546035868998,0.837761797749
1385303116616681378,312,1385303116616681378,1,0.162354377358,0.173283297043,0.0,0.0,0.0,0.509823254151,0.86027916953
1385303116961839409,313,1385303116961839409,1,0.223436371602,0.258873783961,0.0,0.0,0.0,0.450954508364,0.892546935117
1385303117220544474,314,1385303117220544474,1,0.269030734635,0.313565581783,0.0,0.0,0.0,0.425933477033,0.904754482245
1385303117540825534,315,1385303117540825534,1,0.335170339708,0.380890872258,0.0,0.0,0.0,0.369659974599,0.92916710186
1385303117691192150,316,1385303117691192150,1,0.357048250139,0.398410937823,0.0,0.0,0.0,0.350249591929,0.936656406242
1385303117930794440,317,1385303117930794440,1,0.441028381878,0.475079831868,0.0,0.0,0.0,0.331537073574,0.943442191576
1385303118203617869,318,1385303118203617869,1,0.533781535097,0.543095292888,0.0,0.0,0.0,0.300647629435,0.95373528975
1385303118297272683,319,1385303118297272683,1,0.463485148309,0.494729791168,0.0,0.0,0.0,0.291694356233,0.956511579931
1385303118612719372,320,1385303118612719372,1,0.539972967379,0.543380713679,0.0,0.0,0.0,0.253209589944,0.967411444816
1385303118723889056,321,1385303118723889056,1,0.553823811348,0.55221998943,0.0,0.0,0.0,0.244926695362,0.969541599881
1385303118943155404,322,1385303118943155404,1,0.654800656984,0.598972226032,0.0,0.0,0.0,0.189660278953,0.981849773941
1385303119088008801,323,1385303119088008801,1,0.699771890016,0.619870057665,0.0,0.0,0.0,0.172099094449,0.985079642308
1385303119283354259,324,1385303119283354259,1,0.78552081467,0.644880491147,0.0,0.0,0.0,0.121536762358,0.992586930901
1385303119437242651,325,1385303119437242651,1,0.800795730997,0.647788936523,0.0,0.0,0.0,0.110278542104,0.993900720973
1385303119631935435,326,1385303119631935435,1,0.873529140216,0.658884913918,0.0,0.0,0.0,0.0607238918067,0.998154601735
1385303119851975953,327,1385303119851975953,1,0.92765892838,0.662421617894,0.0,0.0,0.0,0.0233141186021,0.999728188996
1385303119998443535,328,1385303119998443535,1,0.981905932788,0.66111629509,0.0,0.0,0.0,-0.0212319387451,0.999774576981
1385303120217807141,329,1385303120217807141,1,1.04396691184,0.653802407497,0.0,0.0,0.0,-0.0724869378365,0.997369361793
1385303120480454221,330,1385303120480454221,1,1.10657303715,0.640252759084,0.0,0.0,0.0,-0.122673806657,0.992447045016
1385303120845042347,331,1385303120845042347,1,1.18749890363,0.612998027607,0.0,0.0,0.0,-0.187068486462,0.982346874262
1385303121035749460,332,1385303121035749460,1,1.22025727234,0.597977134081,0.0,0.0,0.0,-0.217338606403,0.976096270952
1385303121211788716,333,1385303121211788716,1,1.27956259425,0.564633578683,0.0,0.0,0.0,-0.275666764482,0.961253262653
1385303121421355634,334,1385303121421355634,1,1.29891344679,0.551607816931,0.0,0.0,0.0,-0.298377740036,0.954447863558
1385303121994774311,335,1385303121994774311,1,1.32359737474,0.532708212365,0.0,0.0,0.0,-0.340068516611,0.940400661426
1385303122096012387,336,1385303122096012387,1,1.34479474461,0.513136586887,0.0,0.0,0.0,-0.371099446683,0.928593129778
1385303122370040749,337,1385303122370040749,1,1.38448975353,0.470586444575,0.0,0.0,0.0,-0.412554770861,0.910932797214
1385303122488750674,338,1385303122488750674,1,1.41034600487,0.438992454377,0.0,0.0,0.0,-0.434684129385,0.900582982107
1385303122744117203,339,1385303122744117203,1,1.45524940988,0.376097557328,0.0,0.0,0.0,-0.472380133129,0.881394922736
1385303123005371492,340,1385303123005371492,1,1.4868572195,0.322872642095,0.0,0.0,0.0,-0.508530813935,0.861043791731
1385303123369095649,341,1385303123369095649,1,1.51964193413,0.254187804275,0.0,0.0,0.0,-0.547977370155,0.836493157054
1385303123557061861,342,1385303123557061861,1,1.5468991792,0.181958653662,0.0,0.0,0.0,-0.579660134447,0.814858348753
1385303123736352386,343,1385303123736352386,1,1.56098587514,0.13835794574,0.0,0.0,0.0,-0.596081124464,0.80292421377
1385303124219997298,344,1385303124219997298,1,1.59226012136,0.00158422435505,0.0,0.0,0.0,-0.640513162372,0.767947191432
1385303124550434703,345,1385303124550434703,1,1.60344928266,-0.094645502853,0.0,0.0,0.0,-0.683830103982,0.729641274112
1385303124706509434,346,1385303124706509434,1,1.60479984662,-0.140574573166,0.0,0.0,0.0,-0.704902441531,0.70930427034
1385303124923280664,347,1385303124923280664,1,1.60203180115,-0.194423552626,0.0,0.0,0.0,-0.733751849234,0.679417562141
1385303125170173034,348,1385303125170173034,1,1.59517929603,-0.24721421572,0.0,0.0,0.0,-0.760902791409,0.648865889091
1385303125356170049,349,1385303125356170049,1,1.58358605924,-0.298685209861,0.0,0.0,0.0,-0.792537714225,0.609822901777
1385303125633683248,350,1385303125633683248,1,1.56488588843,-0.353886860501,0.0,0.0,0.0,-0.824475592104,0.565897515478
1385303125816185925,351,1385303125816185925,1,1.53765486828,-0.411338347329,0.0,0.0,0.0,-0.858039078248,0.513584404162
1385303126124778397,352,1385303126124778397,1,1.49839040756,-0.470877110391,0.0,0.0,0.0,-0.892835862575,0.450382196029
1385303126630701037,353,1385303126630701037,1,1.40475452933,-0.565094633329,0.0,0.0,0.0,-0.943024105545,0.332724415035
1385303126950751596,354,1385303126950751596,1,1.33690767671,-0.609365179139,0.0,0.0,0.0,-0.966129144686,0.258059054846
1385303127180361409,355,1385303127180361409,1,1.2913160368,-0.631696438865,0.0,0.0,0.0,-0.978517940227,0.206161685709
1385303127933934523,356,1385303127933934523,1,1.10048005339,-0.673299197071,0.0,0.0,0.0,-0.999342981865,0.0362436835525
1385303128166205343,357,1385303128166205343,1,1.03842231427,-0.675001400507,0.0,0.0,0.0,0.999998497988,0.00173321153295
1385303128322205777,358,1385303128322205777,1,0.983966826344,-0.672328438346,0.0,0.0,0.0,0.999268983259,0.0382295578957
1385303128702169195,359,1385303128702169195,1,0.891657072043,-0.657972813509,0.0,0.0,0.0,0.994515545025,0.104588865103
1385303129049875521,360,1385303129049875521,1,0.874101054466,-0.653829331047,0.0,0.0,0.0,0.992140584642,0.12512817551
1385303129163087569,361,1385303129163087569,1,0.89208316894,-0.65817928856,0.0,0.0,0.0,0.994522624793,0.104521523019
1385303129425821420,362,1385303129425821420,1,0.874590849388,-0.654069745814,0.0,0.0,0.0,0.992150368274,0.125050576705
1385303129465534116,363,1385303129465534116,1,0.866228433038,-0.651798172937,0.0,0.0,0.0,0.990881542153,0.134735924757
1385303129654507496,364,1385303129654507496,1,0.767841667266,-0.619089633549,0.0,0.0,0.0,0.985262869403,0.171047005752
1385303129822569446,365,1385303129822569446,1,0.866673521276,-0.652011073841,0.0,0.0,0.0,0.990891168398,0.134665112001
1385303129922105564,366,1385303129922105564,1,0.768340333596,-0.619346780613,0.0,0.0,0.0,0.985276747426,0.170967046479
1385303130278521779,367,1385303130278521779,1,0.681423695681,-0.582842191582,0.0,0.0,0.0,0.974425409887,0.224711193681
1385303130440150298,368,1385303130440150298,1,0.655844234146,-0.568876995589,0.0,0.0,0.0,0.966866388551,0.25528295417
1385303130863398229,369,1385303130863398229,1,0.579535276528,-0.511748153009,0.0,0.0,0.0,0.935874906553,0.35233245562
1385303131002262490,370,1385303131002262490,1,0.33551239656,-0.388258439249,0.0,0.0,0.0,0.876335584317,0.481701093688
1385303131246227362,371,1385303131246227362,1,0.265261154917,-0.314343563467,0.0,0.0,0.0,0.853349440937,0.521339363229
1385303131389165255,372,1385303131389165255,1,0.208138205875,-0.255152231453,0.0,0.0,0.0,0.807586841345,0.589748669932
1385303131556965538,373,1385303131556965538,1,0.196704253636,-0.235767546963,0.0,0.0,0.0,0.774744360776,0.63227460446
1385303131759137328,374,1385303131759137328,1,0.186428087801,-0.162896190988,0.0,0.0,0.0,0.719882605422,0.6940958395
1385303132085835381,375,1385303132085835381,1,0.188654282734,-0.105982713603,0.0,0.0,0.0,0.663259832471,0.748389199969
1385303132496713559,376,1385303132496713559,1,0.194281174561,-0.0817214148782,0.0,0.0,0.0,0.63382633667,0.77347538742
1385303132845910340,377,1385303132845910340,1,0.20139912961,-0.0560290527679,0.0,0.0,0.0,0.610074701057,0.792343902059
1385303132998432036,378,1385303132998432036,1,0.209512415302,-0.0362179767965,0.0,0.0,0.0,0.598667995504,0.800997272879
1385303133306009464,379,1385303133306009464,1,0.237301896667,0.0600505963614,0.0,0.0,0.0,0.57432545526,0.818627064933
1385303133583835472,380,1385303133583835472,1,0.257689573382,0.143664376758,0.0,0.0,0.0,0.542136893681,0.840290181134
1385303133927685873,381,1385303133927685873,1,0.322212771658,0.257540462211,0.0,0.0,0.0,0.465021147544,0.885299572087
1385303134094390596,382,1385303134094390596,1,0.377594207168,0.331543532466,0.0,0.0,0.0,0.415187250344,0.909735976617
1385303134222919720,383,1385303134222919720,1,0.392177402347,0.352118127986,0.0,0.0,0.0,0.401381810425,0.915910826587
1385303134366382283,384,1385303134366382283,1,0.38012458659,0.337175419723,0.0,0.0,0.0,0.382626635922,0.923903056323
1385303134504271932,385,1385303134504271932,1,0.420166171762,0.372512028439,0.0,0.0,0.0,0.350487219942,0.936567514201
1385303134813906558,386,1385303134813906558,1,0.51204226854,0.458232603293,0.0,0.0,0.0,0.319180842219,0.947693827119
1385303134919885132,387,1385303134919885132,1,0.522701103196,0.468085180475,0.0,0.0,0.0,0.305234548003,0.95227720266
1385303135723713830,388,1385303135723713830,1,0.699374736822,0.595035977545,0.0,0.0,0.0,0.330473049903,0.943815428613
1385303136306035773,389,1385303136306035773,1,0.876656089125,0.670809975453,0.0,0.0,0.0,0.25827288214,0.966072004745
1385303136712728517,390,1385303136712728517,1,0.684347403885,0.55736346886,0.0,0.0,0.0,0.203406300299,0.979094416795
1385303137601472338,391,1385303137601472338,1,1.04684136862,0.743266212425,0.0,0.0,0.0,0.238839396429,0.971059083019
1385303137680569118,392,1385303137680569118,1,1.18361307325,0.820815908152,0.0,0.0,0.0,0.266847183551,0.963738854997
1385303138280786960,393,1385303138280786960,1,0.983506104719,0.720400312648,0.0,0.0,0.0,0.253290184647,0.967390346428
1385303138494077354,394,1385303138494077354,1,0.956615147421,0.685053314332,0.0,0.0,0.0,0.242767927448,0.97008439499
1385303138572345449,395,1385303138572345449,1,0.828002626456,0.619587471581,0.0,0.0,0.0,0.238724558382,0.971087321112
1385303139023077455,396,1385303139023077455,1,0.918133098236,0.662342463305,0.0,0.0,0.0,0.242328623463,0.970194227075
1385303139147285495,397,1385303139147285495,1,1.20480110977,0.815478028668,0.0,0.0,0.0,0.228889717094,0.973452360112
1385303139278998801,398,1385303139278998801,1,1.26968940062,0.84951635936,0.0,0.0,0.0,0.25117898812,0.967940657234
1385303140494464404,399,1385303140494464404,1,1.19455681321,0.806783378981,0.0,0.0,0.0,0.229731466846,0.97325405375
1385303140596349829,400,1385303140596349829,1,1.22649486549,0.821156253947,0.0,0.0,0.0,0.221645776873,0.975127247899
1385303140946353927,401,1385303140946353927,1,1.27867860306,0.844124487359,0.0,0.0,0.0,0.207439919866,0.978247759847
1385303141398393799,402,1385303141398393799,1,1.4433931282,0.907663733734,0.0,0.0,0.0,0.167469402583,0.985877273903
1385303142383109227,403,1385303142383109227,1,1.89913871208,1.12985780177,0.0,0.0,0.0,0.0867896588184,0.996226658508
1385303142747913954,404,1385303142747913954,1,1.98681395966,1.17500071721,0.0,0.0,0.0,0.022984926306,0.999735811684
1385303143176228797,405,1385303143176228797,1,2.13797152495,1.16905057418,0.0,0.0,0.0,-0.0239998530129,0.999711962045
1385303143420696861,406,1385303143420696861,1,2.10241580218,1.1688983652,0.0,0.0,0.0,-0.0281971526668,0.99960238124
1385303143508570811,407,1385303143508570811,1,2.06829219104,1.17431137672,0.0,0.0,0.0,0.000491745150009,0.999999879093
1385303143719139700,408,1385303143719139700,1,2.12255560583,1.16704162266,0.0,0.0,0.0,-0.0681746957762,0.997673398892
1385303143925900667,409,1385303143925900667,1,2.17429847058,1.15407172212,0.0,0.0,0.0,-0.132498819545,0.991183163103
1385303144171334603,410,1385303144171334603,1,2.27891818404,1.15051839589,0.0,0.0,0.0,-0.168252902923,0.985743861588
1385303144329203936,411,1385303144329203936,1,2.327442872,1.13578247868,0.0,0.0,0.0,-0.229297862793,0.97335630173
1385303144412519210,412,1385303144412519210,1,2.34790961517,1.12101249195,0.0,0.0,0.0,-0.285053369355,0.958511646575
1385303144659677331,413,1385303144659677331,1,2.54230671478,1.00420684615,0.0,0.0,0.0,-0.390853517328,0.92045289287
1385303145442118655,414,1385303145442118655,1,2.6511973223,0.905505451513,0.0,0.0,0.0,-0.472709268733,0.881218444685
1385303145588552034,415,1385303145588552034,1,2.66732876796,0.864801103284,0.0,0.0,0.0,-0.516706736834,0.856162454275
1385303145723336856,416,1385303145723336856,1,2.69366716263,0.812657771014,0.0,0.0,0.0,-0.550358731953,0.834928300013
1385303145907823692,417,1385303145907823692,1,2.74839644728,0.684168291507,0.0,0.0,0.0,-0.609731036478,0.792608392055
1385303146457062418,418,1385303146457062418,1,2.76351532572,0.550746715847,0.0,0.0,0.0,-0.666489266746,0.745514625821
1385303147215697156,419,1385303147215697156,1,2.78712164427,0.424880609652,0.0,0.0,0.0,-0.733347311011,0.679854191304
1385303147285657630,420,1385303147285657630,1,2.79028236376,0.428119478412,0.0,0.0,0.0,-0.727315807783,0.686302932931
1385303147364664525,421,1385303147364664525,1,2.77110114459,0.245388054304,0.0,0.0,0.0,-0.767931753572,0.640531671236
1385303147535254759,422,1385303147535254759,1,2.74098981891,0.132442380836,0.0,0.0,0.0,-0.813605541026,0.581417254312
1385303147764757760,423,1385303147764757760,1,2.7363481605,0.122516649477,0.0,0.0,0.0,-0.819626097155,0.572898822535
1385303148167296239,424,1385303148167296239,1,2.71448419448,0.0727645140836,0.0,0.0,0.0,-0.839559759273,0.543267347269
1385303148326787419,425,1385303148326787419,1,2.70383679638,0.0548760810686,0.0,0.0,0.0,-0.846827113383,0.531868254401
1385303148484158698,426,1385303148484158698,1,2.66651342009,-0.00654158979353,0.0,0.0,0.0,-0.876617155848,0.481188489132
1385303148654336610,427,1385303148654336610,1,2.6449055015,-0.0356876919858,0.0,0.0,0.0,-0.888505944509,0.458865107163
1385303149031025796,428,1385303149031025796,1,2.59909461778,-0.092766597393,0.0,0.0,0.0,-0.912467765028,0.409148601104
1385303149068711465,429,1385303149068711465,1,2.55930386056,-0.131587509244,0.0,0.0,0.0,-0.931034323596,0.364931621383
1385303149266814225,430,1385303149266814225,1,2.50062675105,-0.175717019082,0.0,0.0,0.0,-0.953783086863,0.300495962059
1385303149389821255,431,1385303149389821255,1,2.42865294704,-0.216947210646,0.0,0.0,0.0,-0.970110354352,0.242664172014
1385303149671819113,432,1385303149671819113,1,2.38374109072,-0.236724350017,0.0,0.0,0.0,-0.9803105734,0.197461843604
1385303149822080535,433,1385303149822080535,1,2.34028432512,-0.25223620264,0.0,0.0,0.0,-0.986305433809,0.164929049104
1385303150040934136,434,1385303150040934136,1,2.26172951724,-0.273717640798,0.0,0.0,0.0,-0.993259578309,0.115911216444
1385303150274339291,435,1385303150274339291,1,2.21770730206,-0.282635964042,0.0,0.0,0.0,-0.995719996927,0.0924212514459
1385303150448188947,436,1385303150448188947,1,2.16191989794,-0.291100221494,0.0,0.0,0.0,-0.997880497025,0.0650731408223
1385303150617316579,437,1385303150617316579,1,2.11692382047,-0.295858494557,0.0,0.0,0.0,-0.999111466458,0.0421459083614
1385303150794860962,438,1385303150794860962,1,2.10069363882,-0.296994471171,0.0,0.0,0.0,-0.999622910682,0.0274597239559
1385303151325335223,439,1385303151325335223,1,2.07068413589,-0.297541658148,0.0,0.0,0.0,0.999999565137,0.000932590748836
1385303151756274072,440,1385303151756274072,1,2.09979284285,-0.297397737697,0.0,0.0,0.0,-0.999609770929,0.0279339553864
1385303151948868510,441,1385303151948868510,1,1.98169477791,-0.314710207708,0.0,0.0,0.0,-0.99480457514,0.101803031787
1385303152158025463,442,1385303152158025463,1,1.93936412113,-0.325878069233,0.0,0.0,0.0,-0.990416917708,0.138109844388
1385303152401670938,443,1385303152401670938,1,1.86213585787,-0.354118635616,0.0,0.0,0.0,-0.981545516176,0.191228658088
1385303152589090848,444,1385303152589090848,1,1.82803372426,-0.370243302788,0.0,0.0,0.0,-0.97444619734,0.224621033053
1385303152714844673,445,1385303152714844673,1,1.78304646969,-0.396617086656,0.0,0.0,0.0,-0.961093127419,0.276224547115
1385303152937931844,446,1385303152937931844,1,1.74540054173,-0.424422589394,0.0,0.0,0.0,-0.945294192684,0.326219081719
1385303153172353009,447,1385303153172353009,1,1.68890657726,-0.475165255062,0.0,0.0,0.0,-0.929880693786,0.367861244662
1385303153851212004,448,1385303153851212004,1,1.55891261374,-0.599790375002,0.0,0.0,0.0,-0.929500250359,0.368821480641
1385303154785089452,449,1385303154785089452,1,1.35481916115,-0.778461327858,0.0,0.0,0.0,-0.942423439878,0.334421978895
1385303155960536558,450,1385303155960536558,1,1.04809985001,-0.979038783814,0.0,0.0,0.0,-0.965791428158,0.259320105846
1385303156826009305,451,1385303156826009305,1,0.818953694059,-1.10044839668,0.0,0.0,0.0,-0.976764305296,0.214316336053
1385303157379877124,452,1385303157379877124,1,0.670189071773,-1.1569351857,0.0,0.0,0.0,-0.988506550208,0.151178041382
1385303157469253570,453,1385303157469253570,1,0.818848630704,-1.10110318547,0.0,0.0,0.0,-0.976722449685,0.214507007532
1385303157654570183,454,1385303157654570183,1,0.784658071223,-1.11608570668,0.0,0.0,0.0,-0.980243828625,0.197792913022
1385303158071810631,455,1385303158071810631,1,0.685069809644,-1.14808112005,0.0,0.0,0.0,-0.993130289135,0.117013797487
1385303158410433678,456,1385303158410433678,1,0.58393588515,-1.15981585523,0.0,0.0,0.0,-0.999866012435,0.0163693975927
1385303158681225341,457,1385303158681225341,1,0.515882062956,-1.15788523973,0.0,0.0,0.0,0.99930436079,0.0372933574063
1385303159141291338,458,1385303159141291338,1,0.398112447045,-1.1374081715,0.0,0.0,0.0,0.991830991774,0.127558942287
1385303159238889505,459,1385303159238889505,1,0.362009781925,-1.1263147154,0.0,0.0,0.0,0.98699212913,0.160768582237
1385303159588567378,460,1385303159588567378,1,0.443578349269,-0.663382679397,0.0,0.0,0.0,0.950815707216,0.309757148282
1385303159659988439,461,1385303159659988439,1,0.517029651413,-0.612281009163,0.0,0.0,0.0,0.930755382048,0.365642473994
1385303160037231418,462,1385303160037231418,1,0.482427904491,-0.56565282518,0.0,0.0,0.0,0.927543669475,0.373714785922
1385303160129881722,463,1385303160129881722,1,0.410817307215,-0.480068275887,0.0,0.0,0.0,0.893711040695,0.448643038215
1385303160246830475,464,1385303160246830475,1,0.404692061332,-0.471441650026,0.0,0.0,0.0,0.883449248886,0.468526866512
1385303160293622267,465,1385303160293622267,1,0.389949699804,-0.452993326551,0.0,0.0,0.0,0.878550832364,0.477648861562
1385303160661814245,466,1385303160661814245,1,0.332127264756,-0.342441085576,0.0,0.0,0.0,0.849552120694,0.527504686448
1385303160868447758,467,1385303160868447758,1,0.302210518602,-0.255350249606,0.0,0.0,0.0,0.802208126284,0.597044489233
1385303161063142271,468,1385303161063142271,1,0.304246854601,-0.225750339342,0.0,0.0,0.0,0.768137421734,0.640285015702
1385303161361324699,469,1385303161361324699,1,0.300504935826,-0.148940632319,0.0,0.0,0.0,0.712689872371,0.701479255445
1385303161748720468,470,1385303161748720468,1,0.301999951503,-0.0933078318429,0.0,0.0,0.0,0.671779067565,0.740751567249
1385303161828729255,471,1385303161828729255,1,0.3082803455,-0.0825006172841,0.0,0.0,0.0,0.656065940775,0.754703571845
1385303162135236796,472,1385303162135236796,1,0.314972919511,-0.0567280106167,0.0,0.0,0.0,0.628454278906,0.777846526845
1385303162203524429,473,1385303162203524429,1,0.333761636396,-0.0191359145482,0.0,0.0,0.0,0.599812559509,0.800140546063
1385303162721126153,474,1385303162721126153,1,0.356249511963,0.03367420101,0.0,0.0,0.0,0.525849008268,0.850577933234
1385303162942203754,475,1385303162942203754,1,0.403238217262,0.135353709216,0.0,0.0,0.0,0.478155524664,0.878275181383
1385303163226117725,476,1385303163226117725,1,0.458200819606,0.23448200219,0.0,0.0,0.0,0.451501120085,0.892270552334
1385303163589875695,477,1385303163589875695,1,0.516891024108,0.307945531878,0.0,0.0,0.0,0.400297980093,0.916385032142
1385303163821162830,478,1385303163821162830,1,0.533159642278,0.328419347988,0.0,0.0,0.0,0.385772657788,0.922593874087
1385303164056604602,479,1385303164056604602,1,0.582326500397,0.366580058798,0.0,0.0,0.0,0.331253070143,0.94354194582
1385303164329207757,480,1385303164329207757,1,0.869002056308,0.556681736062,0.0,0.0,0.0,0.281472393356,0.959569326197
1385303164404174342,481,1385303164404174342,1,0.813399541061,0.533661547322,0.0,0.0,0.0,0.259719791252,0.965684021837
1385303164799633949,482,1385303164799633949,1,0.858309501352,0.560440795322,0.0,0.0,0.0,0.17107535006,0.985257948256
1385303165426612243,483,1385303165426612243,1,0.830525692276,0.547161713134,0.0,0.0,0.0,0.189232090264,0.981932388718
1385303165831362465,484,1385303165831362465,1,0.890042372715,0.570002175025,0.0,0.0,0.0,0.228199923953,0.97361429463
1385303166370578302,485,1385303166370578302,1,1.01752321972,0.628715423854,0.0,0.0,0.0,0.201650544766,0.97945753241
1385303166931429515,486,1385303166931429515,1,1.00213872044,0.618814189018,0.0,0.0,0.0,0.210235947384,0.977650677097
1385303167570557806,487,1385303167570557806,1,1.0808586671,0.662375007602,0.0,0.0,0.0,0.213361907937,0.976973232101
1385303167669087639,488,1385303167669087639,1,0.889394040469,0.562696588446,0.0,0.0,0.0,0.267815095204,0.963470328957
1385303168315335841,489,1385303168315335841,1,1.08055587865,0.661486045735,0.0,0.0,0.0,0.21359865567,0.976921498533
1385303168784231716,490,1385303168784231716,1,1.07437281374,0.662864640268,0.0,0.0,0.0,0.215216602239,0.976566338822
1385303169313515049,491,1385303169313515049,1,1.36102506416,0.797546326666,0.0,0.0,0.0,0.232642139985,0.972562406585
1385303169770292900,492,1385303169770292900,1,1.58663929983,0.896329271622,0.0,0.0,0.0,0.240131169303,0.970740450136
1385303169861733904,493,1385303169861733904,1,1.36134926425,0.797135730606,0.0,0.0,0.0,0.232702565525,0.972547950488
1385303170163829257,494,1385303170163829257,1,1.58742318623,0.896010389133,0.0,0.0,0.0,0.240091507468,0.970750260387
1385303170740854383,495,1385303170740854383,1,1.87623870927,1.04892052039,0.0,0.0,0.0,0.19278040182,0.981241925661
1385303171114484217,496,1385303171114484217,1,1.95589938875,1.0813920687,0.0,0.0,0.0,0.146668805593,0.989185655712
1385303171195856334,497,1385303171195856334,1,1.59100482866,0.936724518364,0.0,0.0,0.0,0.165801635622,0.986159123887
1385303171269070512,498,1385303171269070512,1,1.79501448477,1.02412819806,0.0,0.0,0.0,0.156459960144,0.98768430223
